[
    {
        "name":"Connemara Public Library",
        "latitude":13.0704,
        "longitude":80.2566
    },
    {
        "name":"Chintadripet Library",
        "latitude":13.0762,
        "longitude":80.2667
    },
    {
        "name":"Muhammed Public Library",
        "latitude":13.0664,
        "longitude":80.2739
    },
    {
        "name":"Public Library",
        "latitude":13.114,
        "longitude":80.229
    },
    {
        "name":"Public Library",
        "latitude":13.124,
        "longitude":80.261
    },
    {
        "name":"Government Public Library",
        "latitude":13.029,
        "longitude":80.267
    },
    {
        "name":"Anna Centenary Library",
        "latitude":13.0170,
        "longitude":80.2396
    }
]